{
  "type": "FeatureCollection",
  "features": [
    {
      "type": "Feature",
      "geometry": {
        "type": "Point",
        "coordinates": [
          -49.2714702,
          -16.6848554
        ]
      },
      "properties": {
        "id": "6898065cea10c900156ed082",
        "name": "Geo Fernandes",
        "address": "Sala 12",
        "reference": "Carne de Sol e hamb?rgueria do Jardel",
        "district": "Setor Oeste",
        "city": "Caldas Novas - GO",
        "status": "delivered",
        "phoneNumber": "+5564993040667"
      }
    },
    {
      "type": "Feature",
      "geometry": {
        "type": "Point",
        "coordinates": [
          -48.6282424,
          -17.7376804
        ]
      },
      "properties": {
        "id": "68980623ea10c900156eb322",
        "name": "warlem",
        "address": "Rua Dona Madalena Quadra 5 lote 14 15",
        "reference": "Ao lado da padaria mister paes.",
        "district": "turista 1",
        "city": "Caldas Novas - GO",
        "status": "delivered",
        "phoneNumber": "+5564993434672"
      }
    },
    {
      "type": "Feature",
      "geometry": {
        "type": "Point",
        "coordinates": [
          -48.621028,
          -17.7361272
        ]
      },
      "properties": {
        "id": "6897fffdea10c900156c9df5",
        "name": "Danny Nunes",
        "address": "Rua 01 Qd 2 Lt 15",
        "reference": "Abaixo do sacolar Dona Xepa",
        "district": "Paraiso 1",
        "city": "Caldas Novas - GO",
        "status": "delivered",
        "phoneNumber": "+5564992841084"
      }
    }
  ]
}