{
  "type": "FeatureCollection",
  "features": [
    {
      "type": "Feature",
      "geometry": {
        "type": "Point",
        "coordinates": [
          -48.6270358,
          -17.7474881
        ]
      },
      "properties": {
        "name": "Geo Fernandes",
        "address": "Carne de Sol e hamb?rgueria do Jardel, Sala 12, Setor Oeste, Caldas Novas - GO, Brasil",
        "status": "delivered",
        "phoneNumber": "+5564993040667"
      }
    },
    {
      "type": "Feature",
      "geometry": {
        "type": "Point",
        "coordinates": [
          -48.6282424,
          -17.7376804
        ]
      },
      "properties": {
        "name": "warlem",
        "address": "Ao lado da padaria mister paes., Rua Dona Madalena Quadra 5 lote 14 15, turista 1, Caldas Novas - GO, Brasil",
        "status": "delivered",
        "phoneNumber": "+5564993434672"
      }
    },
    {
      "type": "Feature",
      "geometry": {
        "type": "Point",
        "coordinates": [
          -48.621028,
          -17.7361272
        ]
      },
      "properties": {
        "name": "Danny Nunes",
        "address": "Abaixo do sacolar Dona Xepa, Rua 01 Qd 2 Lt 15, Paraiso 1, Caldas Novas - GO, Brasil",
        "status": "delivered",
        "phoneNumber": "+5564992841084"
      }
    },
    {
      "type": "Feature",
      "geometry": {
        "type": "Point",
        "coordinates": [
          -48.619057,
          -17.7554087
        ]
      },
      "properties": {
        "name": "katia maria da silva",
        "address": "Ao lado do Hotel Taiyo, Rua Presidente Castelo Branco, Residencial ?guas da Serra, apart 504, Bl E, Turista I, Caldas Novas - GO, Brasil",
        "status": "delivered",
        "phoneNumber": "+5564992436000"
      }
    },
    {
      "type": "Feature",
      "geometry": {
        "type": "Point",
        "coordinates": [
          -48.6314072,
          -17.75242
        ]
      },
      "properties": {
        "name": "J?lia Naves",
        "address": "Na esquina tem uma loja perfumaria e o port?o branco, rua B28 Quadra 37 Lote 17A,, Itanhang? I, Caldas Novas - GO, Brasil",
        "status": "delivered",
        "phoneNumber": "+5564996133458"
      }
    },
    {
      "type": "Feature",
      "geometry": {
        "type": "Point",
        "coordinates": [
          -48.6374664,
          -17.7521556
        ]
      },
      "properties": {
        "name": "Daniel Ferreira",
        "address": "Rua atr?s da receita feferal, Rua D11 Qd. 89 Lt. 3, Itanhanga 1, Caldas Novas - GO, Brasil",
        "status": "delivered",
        "phoneNumber": "+5564992082817"
      }
    },
    {
      "type": "Feature",
      "geometry": {
        "type": "Point",
        "coordinates": [
          -48.6073371,
          -17.7208754
        ]
      },
      "properties": {
        "name": "carol",
        "address": "em frente a pista de cooper, port?o preto, Rua RP 08 quadra 02 lote 06A, residencial primavera 1, Caldas Novas - GO, Brasil",
        "status": "delivered",
        "phoneNumber": "+5564992012486"
      }
    },
    {
      "type": "Feature",
      "geometry": {
        "type": "Point",
        "coordinates": [
          -48.6314072,
          -17.75242
        ]
      },
      "properties": {
        "name": "J?lia Naves",
        "address": "Na esquina tem uma loja perfumaria e o port?o branco, rua B28 Quadra 37 Lote 17A, Itanhang? I, Caldas Novas - GO, Brasil",
        "status": "canceled",
        "phoneNumber": "+5564996433458"
      }
    },
    {
      "type": "Feature",
      "geometry": {
        "type": "Point",
        "coordinates": [
          -48.6194334,
          -17.742442
        ]
      },
      "properties": {
        "name": "Lara marra",
        "address": "Rua P qd 03 lt 04 EDIF?CIO KGM apt 101, Buriti mirim, Caldas Novas - GO, Brasil",
        "status": "delivered",
        "phoneNumber": "+5564992445383"
      }
    },
    {
      "type": "Feature",
      "geometry": {
        "type": "Point",
        "coordinates": [
          -48.6113271,
          -17.7636948
        ]
      },
      "properties": {
        "name": "Kaka Gerhardt",
        "address": "Rua da Secretaria de Sa?de, Rua 1, Qd. 3, Lt. 13, Itaici II, Caldas Novas - GO, Brasil",
        "status": "delivered",
        "phoneNumber": "+5564992380505"
      }
    },
    {
      "type": "Feature",
      "geometry": {
        "type": "Point",
        "coordinates": [
          -48.6194686,
          -17.7543985
        ]
      },
      "properties": {
        "name": "MARIANA SANTOS OLIVEIRA",
        "address": "Port?o preto grande, do lado de um Sobradinho pequeno., Av DAS ROSAS, QD 07 LT 03, Jardim dos turistas, Caldas Novas - GO, Brasil",
        "status": "delivered",
        "phoneNumber": "+5564992924731"
      }
    },
    {
      "type": "Feature",
      "geometry": {
        "type": "Point",
        "coordinates": [
          -48.6361385,
          -17.7601572
        ]
      },
      "properties": {
        "name": "alice daiany ribeiro de melo Melo",
        "address": "Na rua do J?nior Autom?veis, Rua Serra Negra qd18 LT 12 A, Jardim Serrano, Caldas Novas - GO, Brasil",
        "status": "delivered",
        "phoneNumber": "+5564992447738"
      }
    },
    {
      "type": "Feature",
      "geometry": {
        "type": "Point",
        "coordinates": [
          -48.6250248,
          -17.7445191
        ]
      },
      "properties": {
        "name": "J?nior Souza",
        "address": "Cond na rua de terra, Rua 90 Quadra 210 Cond Vale verde 1, Mans?es da ?guas quentes, Caldas Novas - GO, Brasil",
        "status": "delivered",
        "phoneNumber": "+5564992697750"
      }
    },
    {
      "type": "Feature",
      "geometry": {
        "type": "Point",
        "coordinates": [
          -48.6329734,
          -17.7416713
        ]
      },
      "properties": {
        "name": "J?lia Riciery",
        "address": "Enfrente ao shopping Singapura e ao lado da LaPanetteria, Av. Coronel Cirilo Lopes de Morais  Q.37  Lt.2a5 Condom?nio: Costa Rica  Apt.402, Turista 1, Caldas Novas - GO, Brasil",
        "status": "delivered",
        "phoneNumber": "+5564993395768"
      }
    },
    {
      "type": "Feature",
      "geometry": {
        "type": "Point",
        "coordinates": [
          -48.6250248,
          -17.7445191
        ]
      },
      "properties": {
        "name": "Lara marra",
        "address": "Porta de vidro ao lado da loja, Rua P qd 03 lt 04 EDIF?CIO KGM apt 101, Buriti mirim, Caldas Novas - GO, Brasil",
        "status": "canceled",
        "phoneNumber": "+5564992445383"
      }
    },
    {
      "type": "Feature",
      "geometry": {
        "type": "Point",
        "coordinates": [
          -48.6351288,
          -17.754211
        ]
      },
      "properties": {
        "name": "Tatiany Pedr?o",
        "address": "Ao lado do gin?sio de esportes encostada ao crossfit box02, Rua b1Qd.40 Lt.07, Itanhanga 1, Caldas Novas - GO, Brasil",
        "status": "delivered",
        "phoneNumber": "+5564992360304"
      }
    },
    {
      "type": "Feature",
      "geometry": {
        "type": "Point",
        "coordinates": [
          -48.6325594,
          -17.7460946
        ]
      },
      "properties": {
        "name": "Marry DC",
        "address": "Muro verde. Na rua de baixo da Drogasil Bandeirantes, Rua 15 de Novembro, 42, quadra 11, lote 19, Bandeirantes, Caldas Novas - GO, Brasil",
        "status": "delivered",
        "phoneNumber": "+5519993900914"
      }
    },
    {
      "type": "Feature",
      "geometry": {
        "type": "Point",
        "coordinates": [
          -48.6249802,
          -17.7444786
        ]
      },
      "properties": {
        "name": "Marcele",
        "address": "Pr?ximo ? avenida do lago sul.  Descendo a rua lateral do supermercado sol ., Rua Ra-22 Qd-1 Lt-16, Alto da Boa Vista, Caldas Novas - GO, Brasil",
        "status": "delivered",
        "phoneNumber": "+5564993028008"
      }
    },
    {
      "type": "Feature",
      "geometry": {
        "type": "Point",
        "coordinates": [
          -48.608872,
          -17.7586877
        ]
      },
      "properties": {
        "name": "Ramila Reis",
        "address": "Port?o vermelho, Rua B2 quadra 05 lote 05, Parque das brisas, Caldas Novas - GO, Brasil",
        "status": "delivered",
        "phoneNumber": "+5564992918775"
      }
    },
    {
      "type": "Feature",
      "geometry": {
        "type": "Point",
        "coordinates": [
          -48.6194334,
          -17.742442
        ]
      },
      "properties": {
        "name": "Wagner Live",
        "address": "Porta de vidro escura em frente ao sal?o do vanio, Rua P qd 3 lt 4 edif?cio kgm apto 101, Buriti Mirim, Caldas Novas - GO, Brasil",
        "status": "canceled",
        "phoneNumber": "+5521994147104"
      }
    },
    {
      "type": "Feature",
      "geometry": {
        "type": "Point",
        "coordinates": [
          -48.638569,
          -17.7267301
        ]
      },
      "properties": {
        "name": "Mariana Croda",
        "address": "Quase em frente a eletr?nica Mix, Rua 23, qd 15, lt 16D, Turista II, Caldas Novas - GO, Brasil",
        "status": "delivered",
        "phoneNumber": "+5564996158549"
      }
    },
    {
      "type": "Feature",
      "geometry": {
        "type": "Point",
        "coordinates": [
          -48.6342452,
          -17.7250324
        ]
      },
      "properties": {
        "name": "Weida Kelly",
        "address": "Rua da tv caldas, Rua 2 quadra 05 lote 9, Turista 2, Caldas Novas - GO, Brasil",
        "status": "delivered",
        "phoneNumber": "+5564999381818"
      }
    },
    {
      "type": "Feature",
      "geometry": {
        "type": "Point",
        "coordinates": [
          -48.626067,
          -17.7476436
        ]
      },
      "properties": {
        "name": "Ana Laura",
        "address": "Ao lado da prepara curso, QD 31, LT 1A, Rua Professor Bretas, Centro, Caldas Novas - GO, Brasil",
        "status": "delivered",
        "phoneNumber": "+5564992437182"
      }
    },
    {
      "type": "Feature",
      "geometry": {
        "type": "Point",
        "coordinates": [
          -48.6331672,
          -17.7378538
        ]
      },
      "properties": {
        "name": "Gustavo Pantoja",
        "address": "Pr?ximo hotel Tayo, Rua Adalgisa condom?nio promenade apt 303 bloco A, Turista I, Caldas Novas - GO, Brasil",
        "status": "delivered",
        "phoneNumber": "+5564996763773"
      }
    },
    {
      "type": "Feature",
      "geometry": {
        "type": "Point",
        "coordinates": [
          -48.61589900000001,
          -17.741247
        ]
      },
      "properties": {
        "name": "L?gia Tom?",
        "address": "Ao lado da casa do adubo, Ed. Odilio Machado, Rua P, quadra 11, lote 02, 1050, Ap 02, Nova Vila, Caldas Novas - GO, Brasil",
        "status": "delivered",
        "phoneNumber": "+5564993182335"
      }
    },
    {
      "type": "Feature",
      "geometry": {
        "type": "Point",
        "coordinates": [
          -48.608872,
          -17.7586877
        ]
      },
      "properties": {
        "name": "Jessica Amorim Godoy",
        "address": "Casa do port?o e muro marrom, Rua B7 qd 35 lt 15, Parque das brisas 1, Caldas Novas - GO, Brasil",
        "status": "delivered",
        "phoneNumber": "+5564992221622"
      }
    },
    {
      "type": "Feature",
      "geometry": {
        "type": "Point",
        "coordinates": [
          -48.6072717,
          -17.7400924
        ]
      },
      "properties": {
        "name": "anahy",
        "address": "e a casa de muro alto cinza e portao preto, rua joaquim rodrigues de godoy qd 20 lt 6, parquel real, Caldas Novas - GO, Brasil",
        "status": "delivered",
        "phoneNumber": "+5564984413595"
      }
    },
    {
      "type": "Feature",
      "geometry": {
        "type": "Point",
        "coordinates": [
          -48.6251087,
          -17.7445029
        ]
      },
      "properties": {
        "name": "Aloisio.",
        "address": "Residencial Village -Orquidea 79-, Residencial Village -Orquidea 79-, Caldas Novas - GO, Brasil",
        "status": "delivered",
        "phoneNumber": "+5562992804459"
      }
    },
    {
      "type": "Feature",
      "geometry": {
        "type": "Point",
        "coordinates": [
          -48.5851616,
          -17.7491131
        ]
      },
      "properties": {
        "name": "Fabiana Faleiro",
        "address": "Port?o branco, Rua ra 19 qd 11 lt 13, Recanto das ?guas, Caldas Novas - GO, Brasil",
        "status": "delivered",
        "phoneNumber": "+5564992282023"
      }
    },
    {
      "type": "Feature",
      "geometry": {
        "type": "Point",
        "coordinates": [
          -48.59057139999999,
          -17.7283335
        ]
      },
      "properties": {
        "name": "Let?cia Rodrigues",
        "address": "Pr?ximo a academia de muy thay, Rua 01 quadra Lm12 lote 07, Jardim prive das caldas, Caldas Novas - GO, Brasil",
        "status": "delivered",
        "phoneNumber": "+5564981123781"
      }
    },
    {
      "type": "Feature",
      "geometry": {
        "type": "Point",
        "coordinates": [
          -48.5896704,
          -17.7473574
        ]
      },
      "properties": {
        "name": "Vanilza ?",
        "address": "rua 11 qd 14E lt 06A, chacara itapema, Caldas Novas - GO, Brasil",
        "status": "delivered",
        "phoneNumber": "+5564992828595"
      }
    },
    {
      "type": "Feature",
      "geometry": {
        "type": "Point",
        "coordinates": [
          -48.6357376,
          -17.7683771
        ]
      },
      "properties": {
        "name": "hiago",
        "address": "rua das ?ricas , qdra 11, lote 16, jardim dos ipes, Caldas Novas - GO, Brasil",
        "status": "delivered",
        "phoneNumber": "+5564984371385"
      }
    },
    {
      "type": "Feature",
      "geometry": {
        "type": "Point",
        "coordinates": [
          -48.6166272,
          -17.7775247
        ]
      },
      "properties": {
        "name": "Natalia Cristina",
        "address": "PORT?O PRETO, RUA 02 QD 01 LT 28, JARDIM ESMERALDA, Caldas Novas - GO, Brasil",
        "status": "delivered",
        "phoneNumber": "+5564993268934"
      }
    },
    {
      "type": "Feature",
      "geometry": {
        "type": "Point",
        "coordinates": [
          -48.6033027,
          -17.7450964
        ]
      },
      "properties": {
        "name": "Carla Cristina",
        "address": "Pr?ximo ao campo do Junqueira, Av. Serra Negra c/ rua 31 Q.10 lote 9B2, Caldas do Oeste, Caldas Novas - GO, Brasil",
        "status": "delivered",
        "phoneNumber": "+5564992276969"
      }
    },
    {
      "type": "Feature",
      "geometry": {
        "type": "Point",
        "coordinates": [
          -48.6401316,
          -17.7671619
        ]
      },
      "properties": {
        "name": "Macella A. Carneiro",
        "address": "Perto do emporio goiano, Rua Mantiqueira, qd 2 casa 11, Jardim Park Sul, Caldas Novas - GO, Brasil",
        "status": "delivered",
        "phoneNumber": "+5564992268779"
      }
    },
    {
      "type": "Feature",
      "geometry": {
        "type": "Point",
        "coordinates": [
          -48.63087549999999,
          -17.7625325
        ]
      },
      "properties": {
        "name": "Elilton Cala?a",
        "address": "em frente o condominio veredas portao marrom, rua e1 quadra 14 lote 14b, itanhanga2, Caldas Novas - GO, Brasil",
        "status": "delivered",
        "phoneNumber": "+5564992352529"
      }
    },
    {
      "type": "Feature",
      "geometry": {
        "type": "Point",
        "coordinates": [
          -48.633596,
          -17.7392268
        ]
      },
      "properties": {
        "name": "Maicon Braga",
        "address": "Na recep??o do Solar das Caldas (entregar ao Maicon), Rua S?o Bento Qd 35 LT 01, Turista 1, Caldas Novas - GO, Brasil",
        "status": "delivered",
        "phoneNumber": "+5564993403819"
      }
    },
    {
      "type": "Feature",
      "geometry": {
        "type": "Point",
        "coordinates": [
          -48.6498162,
          -17.7172198
        ]
      },
      "properties": {
        "name": "Thamires Arrais",
        "address": "Condom?nio Del Fiore, Rua Azal?ias Qd 04, Lt 25, Ch?cara Itapema, Caldas Novas - GO, Brasil",
        "status": "delivered",
        "phoneNumber": "+5564992979521"
      }
    },
    {
      "type": "Feature",
      "geometry": {
        "type": "Point",
        "coordinates": [
          -48.6109536,
          -17.7553959
        ]
      },
      "properties": {
        "name": "Pedro Henrique",
        "address": "dps do posto de saude, rua 22 quadra 36 lote 02, portal das aguas quentes, Caldas Novas - GO, Brasil",
        "status": "delivered",
        "phoneNumber": "+5564981130829"
      }
    },
    {
      "type": "Feature",
      "geometry": {
        "type": "Point",
        "coordinates": [
          -48.6498162,
          -17.7172198
        ]
      },
      "properties": {
        "name": "Lucas Dias",
        "address": "COND DEL FIORI, R DAS HORTENSIAS  QUADRA 07 LOTE 06, COBDOMINIUM DEL FIORI, Caldas Novas - GO, Brasil",
        "status": "delivered",
        "phoneNumber": "+5511988908345"
      }
    },
    {
      "type": "Feature",
      "geometry": {
        "type": "Point",
        "coordinates": [
          -48.6382658,
          -17.7314259
        ]
      },
      "properties": {
        "name": "Lidiany Mello Mello",
        "address": "Sobrado, Rua sebastiana Dias Rodrigues rosi quadra 05 lote 02, Jardim Belvedere, Caldas Novas - GO, Brasil",
        "status": "delivered",
        "phoneNumber": "+5564992361711"
      }
    },
    {
      "type": "Feature",
      "geometry": {
        "type": "Point",
        "coordinates": [
          -48.6363818,
          -17.7461445
        ]
      },
      "properties": {
        "name": "Ana Gabriela",
        "address": "Viela, port?o vermelho, Rua 01 qd 13 lt 27, Bandeirantes, Caldas Novas - GO, Brasil",
        "status": "delivered",
        "phoneNumber": "+5564993040935"
      }
    },
    {
      "type": "Feature",
      "geometry": {
        "type": "Point",
        "coordinates": [
          -48.5862777,
          -17.7470166
        ]
      },
      "properties": {
        "name": "Khettlyn Andrade",
        "address": "Rua RA-6 Qd 8 lot 29B, Recanto das ?guas, Caldas Novas - GO, Brasil",
        "status": "delivered",
        "phoneNumber": "+5564992479674"
      }
    },
    {
      "type": "Feature",
      "geometry": {
        "type": "Point",
        "coordinates": [
          -48.6098641,
          -17.7546715
        ]
      },
      "properties": {
        "name": "ale.leiny@hotmail.com",
        "address": "Rua do campo do camar?o, Rua 12 qd 55 LT 8-b, Caldas do oeste, Caldas Novas - GO, Brasil",
        "status": "delivered",
        "phoneNumber": "+5564992050221"
      }
    },
    {
      "type": "Feature",
      "geometry": {
        "type": "Point",
        "coordinates": [
          -48.6415411,
          -17.753151
        ]
      },
      "properties": {
        "name": "Wanille Amorim",
        "address": "Port?o de grade cinza. Em frente a pra?a pr?ximo ao Chicago, Rua D 15 Qd 99 Lote 10, Itanhang? 1, Caldas Novas - GO, Brasil",
        "status": "delivered",
        "phoneNumber": "+5564981155722"
      }
    },
    {
      "type": "Feature",
      "geometry": {
        "type": "Point",
        "coordinates": [
          -48.621955,
          -17.7440033
        ]
      },
      "properties": {
        "name": "THIAGO",
        "address": "Hotel di Roma Fiori   Ap 132, Via de Acesso Marina Mofatto, s/n, M?dulo 02, CHACARA ROMA, Caldas Novas - GO, Brasil",
        "status": "delivered",
        "phoneNumber": "+5531997933848"
      }
    },
    {
      "type": "Feature",
      "geometry": {
        "type": "Point",
        "coordinates": [
          -48.6319786,
          -17.7449924
        ]
      },
      "properties": {
        "name": "Henrique Pereira",
        "address": "Apto 604 Bloco A, Rua Machado de Assis Q.5 LT. 1-R Ed. Saint Paul, Thermal, Caldas Novas - GO, Brasil",
        "status": "delivered",
        "phoneNumber": "+5564992643272"
      }
    },
    {
      "type": "Feature",
      "geometry": {
        "type": "Point",
        "coordinates": [
          -48.6061094,
          -17.7370888
        ]
      },
      "properties": {
        "name": "vanessa",
        "address": "rua olegario borges de godoy qd.08 lt.19A, parque real, Caldas Novas - GO, Brasil",
        "status": "delivered",
        "phoneNumber": "+5564992233885"
      }
    },
    {
      "type": "Feature",
      "geometry": {
        "type": "Point",
        "coordinates": [
          -48.6107061,
          -17.7820817
        ]
      },
      "properties": {
        "name": "Ivon Fernanda",
        "address": "Perto do detran, Rua 3 Quadra 28 lote 17, Itaici 2, Caldas Novas - GO, Brasil",
        "status": "delivered",
        "phoneNumber": "+5564992767895"
      }
    },
    {
      "type": "Feature",
      "geometry": {
        "type": "Point",
        "coordinates": [
          -48.6446225,
          -17.730686
        ]
      },
      "properties": {
        "name": "Miih??",
        "address": "Rua acima da quadra dos taxistas,port?o cinza, Rua JB-8 Qd-29 Lt-13 Casa B, Jardim Belvedere, Caldas Novas - GO, Brasil",
        "status": "delivered",
        "phoneNumber": "+5564993170523"
      }
    },
    {
      "type": "Feature",
      "geometry": {
        "type": "Point",
        "coordinates": [
          -48.6151322,
          -17.7545459
        ]
      },
      "properties": {
        "name": "Ellen Andrade",
        "address": "Esquina com rua 13, Rua 03 Qd 22 Lt 14B, Bandeirante, Caldas Novas - GO, Brasil",
        "status": "delivered",
        "phoneNumber": "+5564996428988"
      }
    },
    {
      "type": "Feature",
      "geometry": {
        "type": "Point",
        "coordinates": [
          -48.6189731,
          -17.7551153
        ]
      },
      "properties": {
        "name": "Gerusa Tavares De Oliveira",
        "address": "Atr?s da Pousadinha, Avenida dos Turistas Qd 11 LT 9R Residencial Atlanta II Apt 301, Jardim dos Turistas, Caldas Novas - GO, Brasil",
        "status": "delivered",
        "phoneNumber": "+5564992659120"
      }
    },
    {
      "type": "Feature",
      "geometry": {
        "type": "Point",
        "coordinates": [
          -48.62374200000001,
          -17.7644086
        ]
      },
      "properties": {
        "name": "Simone Pires de Faria",
        "address": "Pr?ximo do Dudu supermercado, Av. D quadra 81 lote 32, Itagua? 3, Caldas Novas - GO, Brasil",
        "status": "delivered",
        "phoneNumber": "+5564992375848"
      }
    },
    {
      "type": "Feature",
      "geometry": {
        "type": "Point",
        "coordinates": [
          -48.5841373,
          -17.7384959
        ]
      },
      "properties": {
        "name": "M?rian Silva",
        "address": "Pr?ximo ao Mini pesk Pag cantinho do sossego, Rua CL4 qd 05 lote 32 B, Residencial Caminho do Lago, Caldas Novas - GO, Brasil",
        "status": "delivered",
        "phoneNumber": "+5564992788798"
      }
    },
    {
      "type": "Feature",
      "geometry": {
        "type": "Point",
        "coordinates": [
          -48.6271814,
          -17.7631214
        ]
      },
      "properties": {
        "name": "Cymara Ribeiro",
        "address": "Rua 69 qd 78 lt 17, Itagua? ii, Port?o preto, Caldas Novas - GO, Brasil",
        "status": "canceled",
        "phoneNumber": "+5562981796615"
      }
    },
    {
      "type": "Feature",
      "geometry": {
        "type": "Point",
        "coordinates": [
          -48.6276267,
          -17.7447223
        ]
      },
      "properties": {
        "name": "Carlos Roberto Carvalho",
        "address": "Residencial THUANY, Rua Ant?nio Coelho de God?i - APT 104, Centro, Caldas Novas - GO, Brasil",
        "status": "delivered",
        "phoneNumber": "+5564992988640"
      }
    },
    {
      "type": "Feature",
      "geometry": {
        "type": "Point",
        "coordinates": [
          -48.634054,
          -17.723318
        ]
      },
      "properties": {
        "name": "livia",
        "address": "avenida santo amaro, na portaria do jardim japon?s, jardim japones, Caldas Novas - GO, Brasil",
        "status": "delivered",
        "phoneNumber": "+5562993144157"
      }
    },
    {
      "type": "Feature",
      "geometry": {
        "type": "Point",
        "coordinates": [
          -48.6260689,
          -17.7333308
        ]
      },
      "properties": {
        "name": "Bruno Aurellyo",
        "address": "Em frente o Centro de Conven??es diRoma, Rua S?o Crist?v?o n 1110, Solar de Caldas, Caldas Novas - GO, Brasil",
        "status": "delivered",
        "phoneNumber": "+5564992987774"
      }
    },
    {
      "type": "Feature",
      "geometry": {
        "type": "Point",
        "coordinates": [
          -48.6271814,
          -17.7631214
        ]
      },
      "properties": {
        "name": "Cymara Ribeiro",
        "address": "Port?o preto, Rua 69 qd 78 lt 17, Itagua? ii, Caldas Novas - GO, Brasil",
        "status": "delivered",
        "phoneNumber": "+5562981796615"
      }
    },
    {
      "type": "Feature",
      "geometry": {
        "type": "Point",
        "coordinates": [
          -48.6288607,
          -17.7388014
        ]
      },
      "properties": {
        "name": "warlen",
        "address": "Rua Dona Madalena Quadra 5 lote 14 15, turista 1, Caldas Novas - GO, Brasil",
        "status": "delivered",
        "phoneNumber": "+5564993434672"
      }
    }
  ]
}